City,Cloudiness,Country,Date,Humidity,Lat,Lng,Max Temp,Wind Speed
butterworth,75,MY,1557851400,79,5.4,100.37,86.0,1.12
henties bay,50,NA,1557852713,66,-22.12,14.28,63.69,12.44
saint-philippe,90,CA,1557852608,87,45.36,-73.48,48.0,14.99
lovozero,100,RU,1557852715,60,68.01,35.02,45.15,1.66
san bernardo,0,CL,1557852664,28,-33.59,-70.7,82.99,3.36
carnarvon,100,ZA,1557852716,27,-30.97,22.13,66.57,7.87
hasaki,75,JP,1557851737,100,35.73,140.83,60.8,5.82
busselton,96,AU,1557852652,57,-33.64,115.35,46.0,6.85
chowchilla,1,US,1557852700,49,37.12,-120.26,73.0,3.36
atuona,6,PF,1557852717,75,-9.8,-139.03,82.05,19.82
margate,75,AU,1557852675,66,-43.03,147.26,55.0,10.29
cape town,20,ZA,1557852380,82,-33.93,18.42,69.01,5.82
kununurra,0,AU,1557849600,72,-15.77,128.74,64.4,2.24
albany,90,US,1557852711,81,42.65,-73.75,48.0,2.39
kenai,90,US,1557852424,86,60.55,-151.26,45.0,3.36
airai,19,TL,1557852719,75,-8.93,125.41,74.31,7.92
thompson,20,CA,1557849600,45,55.74,-97.86,42.8,8.05
ushuaia,40,AR,1557849600,81,-54.81,-68.31,44.6,4.7
taylor,75,US,1557852695,53,30.57,-97.41,82.4,8.72
pevek,31,RU,1557852720,90,69.7,170.27,12.75,1.57
new norfolk,75,AU,1557852675,66,-42.78,147.06,55.0,10.29
hilo,20,US,1557852685,73,19.71,-155.08,71.01,4.7
tasiilaq,75,GL,1557850800,75,65.61,-37.64,41.0,31.09
bonfim,40,BR,1557852343,54,-20.33,-44.24,82.4,3.36
hermanus,48,ZA,1557852390,84,-34.42,19.24,66.0,5.01
codrington,75,AU,1557852698,93,-28.95,153.24,61.0,6.93
rikitea,38,PF,1557852723,76,-23.12,-134.97,76.47,7.74
jamestown,0,AU,1557852723,59,-33.21,138.6,52.71,7.25
uppsala,88,SE,1557852534,30,59.86,17.64,59.0,2.24
coihaique,0,CL,1557849600,86,-45.58,-72.07,44.6,6.93
mataura,69,NZ,1557852725,78,-46.19,168.86,51.63,14.43
yellowknife,75,CA,1557852494,68,62.45,-114.38,30.99,11.41
moussoro,87,TD,1557852616,5,13.64,16.49,101.31,5.39
lavrentiya,96,RU,1557852726,96,65.58,-170.99,27.69,5.46
castro,0,CL,1557849600,76,-42.48,-73.76,50.0,6.93
puerto ayora,20,EC,1557852310,70,-0.74,-90.35,84.2,19.46
saint-pierre,0,FR,1557852725,31,48.95,4.24,64.4,18.34
necochea,0,AR,1557852489,50,-38.55,-58.74,63.0,1.01
los llanos de aridane,20,ES,1557852021,64,28.66,-17.92,73.4,11.41
kodinsk,17,RU,1557852729,76,58.6,99.18,30.03,2.95
meulaboh,100,ID,1557852729,74,4.14,96.13,83.85,4.45
hobart,75,AU,1557852675,66,-42.88,147.33,55.0,10.29
turinsk,0,RU,1557852730,51,58.04,63.7,38.67,6.55
lebu,20,ET,1557849600,23,8.96,38.73,75.2,13.87
kavieng,54,PG,1557852731,75,-2.57,150.8,83.31,5.19
thanh hoa,40,VN,1557849600,100,10.21,106.33,78.8,4.9
adrar,0,DZ,1557849600,8,27.87,-0.29,98.6,9.17
ponta do sol,100,BR,1557852732,69,-20.63,-46.0,77.19,3.15
bang saphan,100,TH,1557852732,81,11.21,99.51,80.61,4.65
fukue,75,JP,1557852452,82,35.03,136.69,60.8,8.05
punta arenas,40,CL,1557852193,71,-53.16,-70.91,50.0,17.22
nanortalik,90,GL,1557852733,82,60.14,-45.24,37.95,6.73
kaitangata,5,NZ,1557852693,58,-46.28,169.85,48.99,8.01
saint george,75,GR,1557849000,93,39.45,22.34,68.0,8.05
lagoa,0,PT,1557852676,44,37.14,-8.45,84.99,16.11
vaini,4,IN,1557852734,89,15.34,74.49,77.55,3.44
khatanga,72,RU,1557852735,92,71.98,102.47,8.07,4.59
mar del plata,100,AR,1557852735,27,-46.43,-67.52,54.33,7.76
nouadhibou,0,MR,1557849600,64,20.93,-17.03,71.6,25.28
tuktoyaktuk,20,CA,1557849600,86,69.44,-133.03,30.2,8.05
kapaa,90,US,1557852506,94,22.08,-159.32,73.4,5.82
cabo san lucas,75,MX,1557852390,41,22.89,-109.91,82.0,8.81
berlevag,40,NO,1557849000,83,70.86,29.09,42.8,23.04
dikson,100,RU,1557852737,90,73.51,80.55,16.17,3.29
pontes e lacerda,1,BR,1557852737,57,-15.23,-59.33,78.09,7.96
la teste-de-buch,0,FR,1557852342,22,44.62,-1.18,77.0,12.75
hamilton,75,BM,1557852322,83,32.3,-64.78,77.0,24.16
qaanaaq,0,GL,1557852738,80,77.48,-69.36,26.79,2.24
upernavik,0,GL,1557852739,78,72.79,-56.15,31.83,10.94
bilma,61,NE,1557852739,12,18.69,12.92,91.95,5.17
sitka,0,US,1557852740,26,37.17,-99.65,84.57,2.35
baie-saint-paul,100,CA,1557852352,64,47.44,-70.51,48.0,11.99
xapuri,90,BR,1557849600,78,-10.65,-68.5,73.4,3.36
fort frances,1,CA,1557852334,52,48.61,-93.4,66.99,11.41
weinan,100,CN,1557849600,93,34.5,109.46,57.2,1.1
pangnirtung,75,CA,1557849600,80,66.15,-65.72,39.2,13.87
mahebourg,20,MU,1557852543,73,-20.41,57.7,75.2,3.36
coffeyville,40,US,1557852421,60,37.04,-95.62,75.2,17.22
hervey bay,40,AU,1557852308,88,-25.3,152.85,64.4,8.05
oyek,0,RU,1557851400,74,52.59,104.46,35.6,8.95
port elizabeth,90,US,1557852689,66,39.31,-74.98,60.8,8.05
broome,0,GB,1557852727,44,52.47,1.45,64.4,9.17
bredasdorp,100,ZA,1557852390,68,-34.53,20.04,68.0,3.36
payo,96,ID,1557852743,87,-3.75,103.64,71.43,2.84
tam ky,20,VN,1557849600,79,15.57,108.48,84.2,1.12
ahuimanu,90,US,1557852692,100,21.44,-157.84,77.0,5.82
sorland,20,NO,1557850800,71,67.67,12.69,44.6,6.93
bluff,97,AU,1557852664,77,-23.58,149.07,66.39,13.09
baghdad,0,IQ,1557849600,19,33.3,44.38,95.0,6.93
nikolskoye,75,RU,1557852638,57,59.7,30.79,52.0,6.71
esperance,75,TT,1557852362,58,10.24,-61.45,89.01,18.34
karksi-nuia,1,EE,1557852615,56,58.1,25.55,51.01,1.01
spassk,64,RU,1557852746,80,53.93,43.19,68.55,6.15
narsaq,75,GL,1557849000,30,60.91,-46.05,53.6,16.11
saskylakh,99,RU,1557852747,94,71.97,114.09,15.45,8.25
cidreira,34,BR,1557852747,62,-30.17,-50.22,70.89,8.01
yanam,0,IN,1557847800,52,16.73,82.22,87.8,6.93
madison,40,US,1557852725,32,43.07,-89.38,69.01,9.08
banff,97,CA,1557851644,60,51.18,-115.57,52.0,3.0
san patricio,0,PY,1557852749,63,-26.98,-56.83,69.27,6.64
hithadhoo,83,MV,1557852510,71,-0.6,73.08,85.11,4.61
talnakh,1,RU,1557849600,92,69.49,88.39,15.8,29.08
namibe,25,AO,1557852749,70,-15.19,12.15,74.49,7.38
georgetown,40,GY,1557849600,74,6.8,-58.16,87.8,16.11
davila,100,PH,1557852750,79,18.47,120.58,84.03,7.16
nyrob,96,RU,1557852750,50,60.74,56.73,48.03,7.67
okhotsk,76,RU,1557852751,64,59.36,143.24,41.55,7.9
bjornevatn,40,NO,1557850800,52,69.67,29.98,46.4,6.93
praia da vitoria,20,PT,1557852364,60,38.73,-27.07,68.0,8.41
ilulissat,75,GL,1557849000,26,69.22,-51.1,55.4,16.11
port hardy,90,CA,1557849600,93,50.7,-127.42,48.2,0.65
ulcinj,75,ME,1557851400,76,41.93,19.22,55.4,10.29
arlit,57,NE,1557852753,9,18.74,7.39,100.05,7.58
mount isa,0,AU,1557849600,56,-20.73,139.49,69.8,9.17
minot,1,US,1557852335,26,48.23,-101.3,70.0,3.36
geraldton,75,CA,1557849600,48,49.72,-86.95,62.6,12.75
port alfred,100,ZA,1557852736,94,-33.59,26.89,64.99,1.01
baykit,99,RU,1557852754,87,61.68,96.39,24.27,4.76
san jeronimo,75,PE,1557849600,76,-13.65,-73.37,51.8,11.68
findlay,1,US,1557852737,51,41.04,-83.65,64.0,3.36
burnie,12,AU,1557852740,93,-41.05,145.91,48.99,6.67
rosarito,75,CO,1557849600,94,4.91,-75.23,78.8,4.7
luanda,75,AO,1557849600,69,-8.83,13.24,82.4,6.93
kasongo-lunda,100,CD,1557852756,91,-6.48,16.82,70.17,1.88
durango,1,US,1557852478,21,37.28,-107.88,73.0,7.52
emerald,40,AU,1557852660,82,-23.53,148.16,63.0,9.17
kaputa,93,ZM,1557852757,78,-8.47,29.66,68.37,1.52
kabinda,100,CD,1557852757,52,-6.14,24.49,83.31,2.3
valparaiso,1,US,1557852620,48,41.47,-87.06,66.99,2.86
novyy urengoy,99,RU,1557852757,92,66.08,76.63,20.49,10.6
touros,40,BR,1557849600,62,-5.2,-35.46,87.8,9.17
vardo,75,US,1557852745,58,39.62,-77.74,57.99,14.99
lorengau,67,PG,1557852758,90,-2.02,147.27,77.73,2.33
sabha,0,LY,1557852758,17,27.03,14.43,88.71,9.22
butaritari,100,KI,1557852759,81,3.07,172.79,83.13,13.51
inirida,100,CO,1557852734,84,3.87,-67.92,83.49,2.93
beringovskiy,95,RU,1557852759,96,63.05,179.32,29.49,8.08
cherskiy,95,RU,1557852759,94,68.75,161.3,13.11,5.39
dillon,1,US,1557852610,36,45.22,-112.64,70.0,7.9
bethel,90,US,1557850860,100,60.79,-161.76,39.2,3.36
arraial do cabo,20,BR,1557849600,69,-22.97,-42.02,82.4,12.75
astorga,0,ES,1557852734,13,42.46,-6.05,78.8,4.7
kassala,28,SD,1557852761,11,15.45,36.38,104.19,7.61
zhigansk,100,RU,1557852761,95,66.77,123.37,28.77,13.09
whitehorse,75,CA,1557852528,42,60.72,-135.06,55.99,2.24
severo-kurilsk,100,RU,1557852762,84,50.68,156.12,36.69,32.75
coquimbo,20,CL,1557852289,72,-29.95,-71.34,66.99,4.7
east london,40,ZA,1557849600,88,-33.02,27.91,69.8,14.99
lasa,0,CY,1557852313,78,34.92,32.53,80.6,8.05
lujan,100,AR,1557852763,27,-46.57,-67.67,54.33,7.76
tiksi,68,RU,1557852764,91,71.64,128.87,14.55,5.86
fuerte olimpo,0,BR,1557852764,43,-21.04,-57.87,75.75,8.25
avarua,100,CK,1557849600,100,-21.21,-159.78,73.4,2.24
calabar,92,NG,1557852765,76,4.98,8.34,80.07,6.31
strezhevoy,40,RU,1557849600,63,60.73,77.6,28.4,6.71
aklavik,20,CA,1557849600,56,68.22,-135.01,44.6,4.7
chateaubelair,20,VC,1557849600,70,13.28,-61.25,87.8,8.05
college,90,US,1557851347,46,64.86,-147.8,44.6,2.82
mezen,19,RU,1557852766,49,65.85,44.24,54.15,10.47
charlestown,90,US,1557852485,87,41.38,-71.64,51.8,8.05
havelock,75,US,1557852739,60,34.88,-76.9,75.0,4.7
erzurum,0,TR,1557849000,32,39.91,41.27,66.2,6.93
marabba,43,SD,1557852767,6,12.35,32.18,100.95,3.36
saldanha,39,PT,1557852767,34,41.42,-6.55,79.17,3.98
kaseda,100,JP,1557852524,73,31.42,130.32,64.0,16.55
gravdal,75,NO,1557852723,66,59.79,5.78,54.0,3.36
dzaoudzi,20,YT,1557851400,74,-12.79,45.27,80.6,9.17
guerrero negro,93,MX,1557852768,87,27.97,-114.04,61.71,11.72
bulgan,100,MN,1557852769,76,48.81,103.53,28.77,11.81
barrow,5,AR,1557852769,44,-38.31,-60.23,59.91,11.27
te anau,94,NZ,1557852628,89,-45.41,167.72,43.17,10.11
kavaratti,22,IN,1557852770,77,10.57,72.64,84.57,12.24
kieta,100,PG,1557852770,72,-6.22,155.63,82.59,3.78
turukhansk,50,RU,1557852770,85,65.8,87.96,25.53,7.67
senneterre,75,CA,1557849600,33,48.39,-77.24,57.2,5.82
nacala,20,MZ,1557852771,91,-14.56,40.69,69.45,3.56
batemans bay,0,AU,1557852499,92,-35.71,150.18,46.99,4.0
narrabri,10,AU,1557852485,58,-30.33,149.78,57.2,13.87
ambon,0,FR,1557852736,37,47.55,-2.56,71.01,20.8
rawson,100,AR,1557852772,29,-43.3,-65.11,66.21,20.2
oranjemund,96,ZA,1557852772,85,-28.55,16.43,60.99,10.89
provideniya,99,RU,1557852772,86,64.42,-173.23,32.73,5.61
pochutla,40,MX,1557852351,38,15.74,-96.47,93.0,5.57
wladyslawowo,0,PL,1557852561,71,54.79,18.4,48.99,16.11
chuy,7,UY,1557852569,66,-33.69,-53.46,64.23,15.43
totness,20,US,1557852760,40,33.74,-80.8,71.01,4.7
isangel,59,VU,1557852774,76,-19.55,169.27,77.19,17.18
constitucion,75,MX,1557852617,25,23.99,-104.67,68.0,3.36
marawi,80,PH,1557852389,91,8.0,124.29,77.0,4.0
faya,20,SA,1557849600,49,18.39,42.45,77.0,6.93
port lincoln,0,AU,1557852775,72,-34.72,135.86,62.61,5.37
haines junction,41,CA,1557852669,39,60.75,-137.51,48.03,4.41
sinnamary,66,GF,1557852775,78,5.38,-52.96,82.23,14.72
esso,97,RU,1557852776,95,55.93,158.7,24.99,8.08
buraydah,40,SA,1557849600,24,26.33,43.97,93.2,4.7
ketchikan,90,US,1557849360,76,55.34,-131.65,50.0,5.82
atherton,0,GB,1557852563,46,53.52,-2.49,71.01,9.17
tilichiki,100,RU,1557852777,84,60.47,166.1,29.31,12.48
gumdag,2,TM,1557852777,36,39.2,54.59,78.99,8.61
lixourion,40,GR,1557852307,72,38.2,20.43,66.2,5.82
teahupoo,40,PF,1557849600,78,-17.83,-149.27,75.2,3.36
yinchuan,59,CN,1557852739,42,38.48,106.21,62.01,3.0
tautira,40,PF,1557849600,78,-17.73,-149.15,75.2,3.36
leningradskiy,64,RU,1557852779,93,69.38,178.42,19.77,6.82
grindavik,75,IS,1557851400,93,63.84,-22.43,55.4,31.09
sola,0,NO,1557852619,76,58.89,5.65,54.0,8.05
gat,0,SN,1557851400,54,14.69,-16.54,78.8,19.46
siniscola,40,IT,1557849000,48,40.57,9.69,64.4,12.75
ballinrobe,0,IE,1557852725,39,53.62,-9.22,66.0,16.11
maldonado,75,UY,1557849600,55,-34.91,-54.96,62.6,14.36
kwekwe,0,ZW,1557852781,48,-18.93,29.81,63.15,9.53
kamsack,1,CA,1557849600,47,51.56,-101.9,55.4,5.1
avera,1,US,1557852693,46,33.19,-82.53,75.0,3.71
longyearbyen,75,NO,1557850800,92,78.22,15.63,32.0,3.36
roebourne,0,AU,1557852782,15,-20.77,117.15,71.07,10.04
paracuru,75,BR,1557852493,66,-3.41,-39.03,86.0,11.41
medicine hat,90,CA,1557852325,58,50.04,-110.68,62.01,4.7
torbay,75,CA,1557852433,46,47.66,-52.73,51.01,4.7
hawkesbury,90,CA,1557852759,81,45.61,-74.6,48.0,10.29
kodiak,40,US,1557852571,32,39.95,-94.76,78.01,12.75
mazagao,40,BR,1557849600,66,-0.12,-51.29,89.6,6.93
preobrazheniye,23,RU,1557852784,97,42.9,133.91,43.53,2.68
general roca,39,AR,1557852699,45,-39.03,-67.58,65.31,12.57
lata,43,IN,1557852784,84,30.78,78.62,26.61,7.09
christchurch,1,NZ,1557852680,93,-43.53,172.64,53.01,5.82
brokopondo,40,SR,1557849600,70,5.06,-54.98,86.0,8.05
pilar do sul,73,BR,1557852785,73,-23.81,-47.72,74.13,2.93
tromso,75,NO,1557850800,80,69.65,18.96,39.2,17.22
batticaloa,43,LK,1557852786,86,7.71,81.69,78.81,1.79
ola,0,RU,1557852786,62,59.58,151.3,35.79,8.48
faanui,82,PF,1557852786,78,-16.48,-151.75,83.31,16.84
boende,100,CD,1557852787,89,-0.28,20.88,75.39,4.05
costinesti,75,RO,1557851400,87,43.95,28.63,59.0,11.41
mairi,59,BR,1557852671,59,-11.71,-40.15,82.05,5.03
podgornoye,56,RU,1557852787,71,57.79,82.64,34.53,8.93
komsomolskiy,79,RU,1557852788,83,67.55,63.78,19.41,8.41
nchelenge,25,ZM,1557852788,70,-9.35,28.74,72.51,6.67
acapulco,5,MX,1557848640,65,16.86,-99.88,82.4,3.36
panaba,15,MX,1557852789,31,21.28,-88.27,101.31,4.74
contamana,92,PE,1557852789,93,-7.35,-75.01,75.93,2.71
techiman,95,GH,1557852789,52,7.58,-1.94,86.91,1.63
muravlenko,99,RU,1557852789,85,63.79,74.5,19.95,11.9
crotone,40,IT,1557849000,93,39.09,17.12,53.6,8.05
humaita,40,AR,1557849600,52,-24.93,-65.37,69.8,2.24
marsh harbour,2,BS,1557852713,82,26.54,-77.06,80.97,11.03
yairipok,6,IN,1557852790,80,24.67,94.07,66.57,4.38
matara,75,PE,1557849600,76,-13.74,-72.9,51.8,7.65
ambilobe,63,MG,1557852791,87,-13.19,49.05,74.31,6.82
inverness,0,GB,1557852605,37,57.48,-4.23,69.01,8.05
virginia beach,75,US,1557852677,63,36.85,-75.98,66.2,10.49
peace river,20,CA,1557849600,53,56.23,-117.29,50.0,5.82
zhuhai,20,CN,1557849600,29,40.71,112.04,60.8,6.71
agadez,28,NE,1557849600,21,16.97,7.99,104.0,9.17
zyryanka,14,RU,1557852792,56,65.73,150.89,30.03,5.59
fort nelson,75,CA,1557849600,75,58.81,-122.69,44.6,5.12
plettenberg bay,90,ZA,1557852793,28,-34.05,23.37,75.21,4.56
jaru,1,BR,1557852793,71,-10.43,-62.48,82.59,8.66
taoudenni,35,ML,1557852794,6,22.68,-3.98,107.07,10.47
tyup,9,KG,1557852794,74,42.73,78.36,32.19,4.99
san francisco,75,US,1557852481,76,37.78,-122.42,61.0,6.08
saint-joseph,20,FR,1557852627,63,43.56,6.97,69.8,8.05
caravelas,6,BR,1557852795,64,-17.73,-39.27,83.67,5.46
sirjan,73,IR,1557852795,36,29.44,55.67,72.87,11.18
ribnitz-damgarten,40,DE,1557852609,34,54.24,12.43,57.0,13.87
nishihara,90,JP,1557852794,72,35.74,139.53,64.0,5.82
elizabethtown,90,US,1557852738,62,40.15,-76.6,55.0,12.75
klaksvik,62,FO,1557850800,100,62.23,-6.59,48.2,2.24
chokurdakh,84,RU,1557852797,93,70.62,147.9,4.65,4.65
lompoc,90,US,1557852693,87,34.64,-120.46,62.01,11.48
nyurba,92,RU,1557852797,89,63.29,118.35,31.83,3.71
iqaluit,75,CA,1557852769,80,63.75,-68.52,35.6,4.7
miandrivazo,0,MG,1557852798,72,-19.53,45.46,68.37,0.98
yulara,0,AU,1557849600,39,-25.24,130.99,50.0,8.05
laguna de perlas,40,NI,1557849600,79,12.34,-83.67,87.8,9.17
flinders,0,AU,1557852740,100,-34.58,150.85,61.0,9.17
beneditinos,75,BR,1557849600,70,-5.46,-42.36,87.8,5.82
tuatapere,67,NZ,1557852800,73,-46.13,167.69,56.13,48.74
morrope,20,PE,1557849600,69,-6.54,-80.02,78.8,11.41
aksu,75,KZ,1557849600,80,52.04,76.93,41.0,13.42
mareeba,90,AU,1557852800,83,-16.99,145.42,75.99,17.22
marzuq,5,YE,1557852801,28,14.4,46.47,80.61,6.49
sarwar,41,IN,1557852801,21,26.06,75.01,94.47,16.89
cockburn town,0,TC,1557852667,82,21.46,-71.14,82.23,7.47
fiche,91,ET,1557852802,22,9.77,38.74,80.61,2.57
kayerkan,2,RU,1557849600,92,69.35,87.76,15.8,29.08
saint-michel-des-saints,100,CA,1557852316,8,46.68,-73.92,46.0,5.99
ancud,0,CL,1557849600,76,-41.87,-73.83,50.0,6.93
waddan,0,LY,1557852803,21,29.16,16.14,80.43,11.23
alta floresta,75,BR,1557849600,66,-9.87,-56.08,86.0,4.7
silifke,18,TR,1557852804,28,36.38,33.93,73.77,5.06
bangolo,100,CI,1557852804,78,7.01,-7.49,80.97,2.98
kudahuvadhoo,39,MV,1557852804,72,2.67,72.89,85.83,9.42
bisira,62,PA,1557852804,57,8.52,-81.71,84.75,4.54
sampit,100,ID,1557852805,91,-2.54,112.95,75.39,1.41
grand gaube,20,MU,1557852543,73,-20.01,57.66,75.2,3.36
ribeira grande,20,PT,1557849600,72,38.52,-28.7,64.4,11.41
pasighat,6,IN,1557852805,95,28.06,95.33,60.81,3.24
nuuk,75,GL,1557849000,61,64.17,-51.74,48.2,8.05
katherine,0,AU,1557849600,52,-14.47,132.26,68.0,4.7
vila velha,75,BR,1557852493,66,-3.71,-38.6,86.0,11.41
deputatskiy,58,RU,1557852807,98,69.3,139.9,15.99,3.69
machico,20,PT,1557852785,73,32.7,-16.77,71.6,6.93
wanning,75,AT,1557852743,57,48.64,13.53,51.01,8.05
belaya gora,100,RU,1557852807,78,68.54,146.19,21.21,5.79
laela,90,TZ,1557852808,93,-8.57,32.05,60.99,5.53
quatre cocos,20,MU,1557852543,73,-20.21,57.76,75.2,3.36
san policarpo,35,PH,1557852808,75,12.18,125.51,83.67,6.35
biak,100,ID,1557852809,99,-0.91,122.88,66.03,1.95
biltine,1,TD,1557852809,6,14.53,20.93,95.37,2.64
yokadouma,97,CM,1557852809,66,3.52,15.05,80.43,2.64
nabire,100,ID,1557852810,99,-3.36,135.5,71.61,1.3
banjar,100,ID,1557852810,98,-7.37,108.54,74.49,0.85
galle,1,US,1557852803,61,29.74,-97.91,82.0,8.19
moses lake,75,US,1557852373,55,47.13,-119.28,66.0,5.82
mandalgovi,96,MN,1557852811,34,45.76,106.27,46.95,26.84
nakamura,75,JP,1557852752,82,35.17,136.87,60.8,8.05
portland,90,US,1557852326,76,45.52,-122.67,55.0,6.93
assiniboia,96,CA,1557852812,34,49.63,-105.99,65.49,7.78
lipkovo,75,MK,1557852591,87,42.16,21.59,62.6,17.22
pacific grove,20,US,1557852792,67,36.62,-121.92,60.01,6.93
mantua,40,IT,1557852783,54,45.16,10.79,60.8,12.75
great falls,20,US,1557852611,71,47.5,-111.29,69.01,6.62
antalaha,78,MG,1557852813,94,-14.9,50.28,68.55,0.47
mkushi,0,ZM,1557852814,67,-13.61,29.4,57.21,3.71
abnub,0,EG,1557849600,18,27.27,31.15,98.6,4.7
gebre guracha,97,ET,1557852814,33,9.8,38.4,77.19,4.03
san blas,5,MX,1557848880,38,21.54,-105.29,77.0,3.36
salalah,40,OM,1557849000,79,17.01,54.1,86.0,8.05
alice springs,0,AU,1557849600,49,-23.7,133.88,46.4,4.7
chepareria,97,KE,1557852815,76,1.32,35.2,69.45,2.98
mahajanga,20,MG,1557849600,65,-15.72,46.32,78.8,4.7
ahipara,99,NZ,1557852816,66,-35.17,173.16,63.33,14.25
petropavlovsk-kamchatskiy,0,RU,1557849600,65,53.05,158.65,41.0,13.42
waitati,0,NZ,1557852280,46,-45.75,170.57,54.0,7.0
nome,1,US,1557852808,51,30.04,-94.42,82.99,6.93
sabzevar,40,IR,1557849600,31,36.21,57.68,75.2,20.8
katsuura,75,JP,1557851983,93,33.93,134.5,60.8,4.7
noumea,20,NC,1557849600,88,-22.28,166.46,64.4,22.5
kruisfontein,100,ZA,1557852818,34,-34.0,24.73,69.99,6.64
kota belud,75,MY,1557849600,88,6.35,116.43,78.8,6.98
alyangula,0,AU,1557849600,100,-13.85,136.42,64.4,15.23
ust-omchug,0,RU,1557852819,68,61.13,149.63,26.25,2.95
marsa matruh,0,EG,1557849600,53,31.35,27.25,77.0,13.87
marienburg,0,DE,1557852798,35,52.12,9.98,60.8,14.99
kottagudem,1,IN,1557852820,42,17.55,80.63,89.61,5.39
bilibino,44,RU,1557852821,88,68.06,166.44,1.77,2.51
wagga wagga,0,AU,1557852358,100,-35.12,147.37,41.0,4.7
thakurgaon,4,BD,1557852821,72,26.02,88.47,82.77,7.49
neryungri,84,RU,1557852821,94,56.66,124.71,39.21,4.38
luau,86,CD,1557852822,54,-10.7,22.23,73.23,2.42
moron,98,VE,1557852616,33,10.49,-68.2,98.43,7.25
sao felix do xingu,87,BR,1557852822,89,-6.64,-51.99,79.89,3.09
mecca,0,SA,1557852823,33,21.43,39.83,91.23,2.91
meiganga,100,CM,1557852823,82,6.52,14.29,75.21,5.23
pisco,0,PE,1557852316,30,-13.71,-76.2,71.6,9.17
norilsk,1,RU,1557849600,92,69.35,88.2,15.8,29.08
caxias,75,BR,1557849600,70,-4.87,-43.35,87.8,5.82
udachnyy,90,RU,1557849600,100,66.42,112.4,30.2,8.95
northam,0,GB,1557852730,51,51.04,-4.21,64.99,12.75
san cristobal,75,EC,1557850571,68,-0.39,-78.55,64.4,2.24
raudeberg,75,NO,1557852603,43,61.99,5.14,55.4,4.7
fairbanks,90,US,1557851347,46,64.84,-147.72,44.01,2.82
norman wells,20,CA,1557849600,56,65.28,-126.83,44.6,6.93
tura,93,IN,1557852826,79,25.52,90.21,77.91,5.06
dunedin,0,NZ,1557852280,46,-45.87,170.5,54.0,7.0
malinyi,99,TZ,1557852827,78,-8.94,36.14,73.77,1.12
magadan,0,RU,1557852827,62,59.56,150.8,36.87,10.0
khorixas,94,NA,1557852827,15,-20.37,14.96,87.27,9.28
calamar,100,CO,1557852828,98,1.96,-72.65,71.79,2.35
sao filipe,0,CV,1557852828,85,14.9,-24.5,73.05,21.16
aleksandrov gay,20,RU,1557852828,52,50.14,48.57,72.33,5.84
broken hill,0,AU,1557849600,70,-31.97,141.45,48.2,8.05
bandarbeyla,63,SO,1557852829,71,9.49,50.81,82.23,13.42
nioro,17,GM,1557852829,6,13.79,-15.05,110.31,4.9
qaqortoq,75,GL,1557849000,30,60.72,-46.03,53.6,16.11
ostrovnoy,100,RU,1557852830,75,68.05,39.51,43.17,6.4
sovetskiy,22,RU,1557852830,80,56.76,48.47,65.49,4.76
seoul,1,KR,1557850800,76,37.57,126.98,64.4,1.12
manyana,0,AU,1557852740,100,-35.26,150.51,61.0,9.17
banda aceh,92,ID,1557852831,73,5.56,95.32,85.29,8.08
nouakchott,0,MR,1557851400,69,18.08,-15.98,73.4,25.28
hun,0,BE,1557852809,41,50.34,4.87,62.01,14.99
parana,75,BR,1557849600,83,-7.52,-72.89,77.0,8.05
tucurui,100,BR,1557852816,72,-3.77,-49.67,85.65,1.79
soanierana ivongo,50,MG,1557852832,93,-16.92,49.59,72.33,3.98
ternate,40,PH,1557852784,70,14.29,120.72,86.0,2.24
luderitz,100,NA,1557849600,72,-26.65,15.16,64.4,6.93
souillac,27,FR,1557852701,65,45.6,-0.6,71.6,23.04
steinbach,20,CA,1557852771,37,49.53,-96.69,57.99,18.34
marystown,98,CA,1557852835,44,47.17,-55.16,51.81,9.08
dicabisagan,100,PH,1557852835,81,17.08,122.42,78.99,2.1
oktyabrskiy,0,RU,1557852022,72,55.61,37.97,68.0,8.95
raton,1,US,1557852803,24,36.9,-104.44,77.0,3.36
doba,99,TD,1557852836,31,8.66,16.85,95.73,2.55
bandiagara,20,ML,1557852836,15,14.35,-3.61,105.09,3.31
teguldet,100,RU,1557852837,60,57.31,88.17,33.09,2.98
ergani,0,TR,1557849000,38,38.27,39.76,78.8,2.98
shache,68,CN,1557852824,59,38.42,77.24,57.0,3.09
russell,0,AR,1557849600,48,-33.01,-68.8,60.8,3.36
teya,20,MX,1557848700,55,21.05,-89.07,89.6,16.11
kuching,75,MY,1557849600,94,1.56,110.34,80.6,2.24
vanimo,5,PG,1557852839,80,-2.67,141.3,82.59,11.99
dwarka,20,IN,1557852302,31,28.58,77.04,91.99,4.7
kangaatsiaq,49,GL,1557852839,67,68.31,-53.46,39.57,22.91
maceio,40,BR,1557849600,55,-9.67,-35.74,86.0,6.93
cam ranh,20,VN,1557849600,78,11.92,109.15,82.4,2.24
griffith,0,AU,1557849600,93,-34.29,146.06,42.8,1.12
springbok,99,ZA,1557852840,43,-29.67,17.88,68.73,4.38
san quintin,100,PH,1557852841,81,17.54,120.52,80.25,2.1
greenfield,90,US,1557852834,75,42.59,-72.6,48.0,9.17
morros,75,BR,1557849600,94,-2.87,-44.04,77.0,9.17
algiers,1,US,1557852805,32,29.94,-90.04,82.0,11.41
husavik,0,CA,1557852671,44,50.56,-96.99,55.99,7.0
clyde river,40,CA,1557851940,92,70.47,-68.59,30.2,26.4
dzerzhinskoye,45,RU,1557852843,62,56.84,95.22,30.21,3.85
sambava,25,MG,1557852843,86,-14.27,50.17,71.61,1.54
talpa,40,MX,1557852838,32,28.83,-111.63,86.0,7.2
tumarbong,58,PH,1557852844,77,10.38,119.46,83.49,5.68
virden,53,CA,1557852818,36,49.85,-100.93,64.23,2.46
koundara,22,GN,1557852844,9,12.49,-13.3,107.97,1.86
bambous virieux,20,MU,1557852842,73,-20.34,57.76,75.2,3.36
liverpool,0,GB,1557852603,46,53.41,-2.98,71.01,9.17
byron bay,75,AU,1557852698,93,-28.65,153.62,66.0,5.26
viedma,52,AR,1557852555,37,-40.81,-62.99,62.43,17.02
estelle,5,US,1557852605,44,32.87,-97.01,84.0,9.17
isla vista,90,US,1557852370,87,34.41,-119.86,60.8,4.97
tendukheda,19,IN,1557852846,21,23.4,79.54,92.85,7.02
santa isabel do rio negro,74,BR,1557852846,90,-0.41,-65.02,82.23,3.06
egvekinot,100,RU,1557852846,96,66.32,-179.17,19.95,10.0
hualmay,100,PE,1557852573,96,-11.1,-77.61,64.77,13.65
taylorville,1,US,1557852822,45,39.55,-89.29,69.01,6.93
mayachnyy,47,RU,1557852847,77,52.68,55.69,65.67,9.64
laguna,5,MX,1557848460,24,27.52,-110.01,82.4,3.36
vestmannaeyjar,90,IS,1557849600,100,63.44,-20.27,46.4,29.97
yar-sale,0,RU,1557852848,92,66.83,70.83,13.65,6.15
pitimbu,75,BR,1557849600,70,-7.47,-34.81,86.0,8.05
salinopolis,100,BR,1557852849,76,-0.61,-47.36,83.13,12.08
batu gajah,75,MY,1557849600,88,4.47,101.04,80.6,4.7
aguimes,20,ES,1557852774,53,27.91,-15.45,77.0,27.51
opuwo,61,NA,1557852851,25,-18.06,13.84,79.53,5.73
beloha,21,MG,1557852851,90,-25.17,45.06,66.93,6.11
bud,75,NO,1557852350,58,62.91,6.91,53.6,10.29
arshan,10,YE,1557852852,42,14.32,46.95,79.71,8.61
kaka,1,TM,1557852852,27,37.35,59.62,81.33,15.55
sorong,97,ID,1557852831,94,-0.86,131.25,77.37,2.71
jinchang,80,CN,1557852853,39,38.52,102.19,51.99,17.09
belyy yar,99,RU,1557849600,92,53.6,91.39,30.2,2.24
tanabe,76,JP,1557852757,95,33.73,135.39,59.0,5.86
villarrica,0,CL,1557852362,71,-39.28,-72.23,66.0,2.24
hami,6,CN,1557852854,18,42.84,93.51,51.63,12.59
garowe,94,SO,1557852861,53,8.41,48.48,85.65,11.21
puerto escondido,40,MX,1557848400,58,15.86,-97.07,86.0,7.78
petauke,0,ZM,1557852861,65,-14.25,31.33,65.85,8.14
kungurtug,91,RU,1557852863,85,50.6,97.53,23.55,2.91
fortuna,0,ES,1557852823,40,38.18,-1.13,78.8,8.05
dhidhdhoo,17,MV,1557852863,75,6.88,73.1,85.65,10.02
vostok,46,RU,1557852864,63,46.45,135.83,48.39,3.71
kalianget,100,ID,1557852864,98,-7.74,113.68,66.21,2.06
torrevieja,0,ES,1557852618,40,37.98,-0.68,78.8,12.75
musoma,90,TZ,1557852864,69,-1.5,33.81,77.37,8.57
boyolangu,100,ID,1557852865,94,-8.09,111.9,73.59,4.05
phan thiet,65,VN,1557852693,91,10.93,108.1,78.27,1.68
nantucket,90,US,1557852842,93,41.28,-70.1,48.2,11.41
am timan,75,TD,1557852866,19,11.04,20.28,99.87,5.26
yumen,47,CN,1557852866,28,40.29,97.04,56.31,11.88
yichun,0,CN,1557852866,78,47.72,128.88,40.65,3.22
esmeralda,0,CL,1557849600,35,-34.33,-70.9,69.8,3.36
ambikapur,3,IN,1557852867,25,23.12,83.2,81.69,3.94
chulym,100,RU,1557852867,87,55.09,80.97,37.23,6.85
makakilo city,90,US,1557852431,100,21.35,-158.09,77.0,5.82
saint-augustin,0,FR,1557852848,25,44.83,-0.61,78.01,14.99
birao,45,CF,1557852868,7,10.3,22.78,92.85,5.39
kayseri,0,TR,1557849000,24,38.73,35.48,79.0,6.93
shingu,93,JP,1557852869,99,33.72,135.99,48.03,4.18
lazarev,94,RU,1557852869,82,52.23,141.51,36.15,7.25
asyut,0,EG,1557849600,18,27.18,31.19,98.6,4.7
ponferrada,8,ES,1557852854,99,42.55,-6.59,78.01,3.0
poso,100,ID,1557852870,97,-1.4,120.75,62.97,2.82
tiznit,16,MA,1557852694,79,29.7,-9.73,68.19,5.66
navolato,40,MX,1557852665,47,24.76,-107.7,82.0,8.77
san lazaro,75,BZ,1557849600,79,18.04,-88.66,87.8,6.93
kaeo,88,NZ,1557851885,91,-35.1,173.78,51.01,5.32
coos bay,90,US,1557852485,100,43.37,-124.22,54.0,5.82
yeppoon,75,AU,1557849600,73,-23.13,150.74,69.8,10.29
khandyga,100,RU,1557852872,47,62.65,135.58,41.73,8.7
zlatograd,40,BG,1557850800,72,41.38,25.09,68.0,11.41
kysyl-syr,87,RU,1557852873,87,63.9,122.77,38.49,8.66
guanare,100,VE,1557852873,48,9.04,-69.74,87.81,2.15
lensk,97,RU,1557852873,63,60.71,114.91,35.79,4.92
ocala,40,US,1557852806,74,29.19,-82.14,84.0,6.93
osmena,42,PH,1557852874,79,12.17,124.59,82.77,9.4
quthing,39,LS,1557852874,38,-30.4,27.7,55.59,3.91
consett,0,GB,1557852849,49,54.85,-1.83,71.01,8.05
lazaro cardenas,5,MX,1557852610,28,28.39,-105.62,78.01,4.23
kutum,23,SD,1557852875,6,14.2,24.66,86.73,6.15
san matias,75,HN,1557849600,61,13.97,-86.63,80.6,5.82
marco,98,BR,1557852876,85,-3.12,-40.15,82.59,6.29
kilindoni,72,TZ,1557852876,69,-7.91,39.67,83.31,15.77
pilot butte,90,CA,1557849600,31,50.48,-104.42,60.8,2.24
mount gambier,90,AU,1557849600,100,-37.83,140.78,50.0,4.59
chekhov,0,RU,1557852022,77,55.14,37.45,68.0,11.18
podporozhye,21,RU,1557852878,73,60.91,34.16,49.47,8.01
sawtell,75,AU,1557852800,100,-30.38,153.1,55.4,5.5
soyo,20,AO,1557849600,79,-6.13,12.37,84.2,6.93
chapais,75,CA,1557849600,37,49.78,-74.86,55.4,11.41
omboue,90,GA,1557852879,81,-1.57,9.26,82.23,10.54
guarapari,20,BR,1557851645,78,-20.67,-40.5,82.0,13.87
nador,0,MA,1557851400,68,35.17,-2.93,69.8,10.29
sao sebastiao do cai,90,BR,1557852485,93,-29.59,-51.38,68.0,5.82
rockport,75,US,1557852588,69,28.02,-97.05,82.4,12.75
lulea,0,SE,1557849000,48,65.58,22.15,50.0,6.93
gobabis,23,NA,1557849600,16,-22.45,18.97,78.8,1.12
dingle,39,PH,1557852881,68,11.0,122.67,78.99,3.69
svalyava,92,UA,1557852583,86,48.55,22.99,57.0,3.0
camacha,75,PT,1557851400,77,33.08,-16.33,71.6,20.8
ulladulla,0,AU,1557852410,100,-35.36,150.48,50.0,9.17
vanavara,55,RU,1557852882,94,60.35,102.28,26.97,2.1
san vicente,75,SV,1557852316,83,13.64,-88.78,84.2,3.36
tucuman,0,PE,1557852883,20,-17.17,-70.89,71.07,7.99
brigham city,1,US,1557852883,26,41.51,-112.02,77.0,3.36
katima mulilo,0,NA,1557849600,32,-17.5,24.28,80.6,3.36
knysna,0,ZA,1557849600,50,-34.04,23.05,75.2,8.05
zhukovo,92,RU,1557852884,60,57.4,83.94,33.27,6.04
denpasar,20,ID,1557849600,88,-8.65,115.22,80.6,12.75
half moon bay,75,US,1557852873,76,37.46,-122.43,62.01,5.3
puro,37,PH,1557852885,83,13.13,123.76,80.07,6.76
talcahuano,0,CL,1557849600,51,-36.72,-73.12,62.6,6.93
kahului,20,US,1557852606,83,20.89,-156.47,73.99,8.93
muroto,100,JP,1557852886,85,33.37,134.14,59.01,6.44
palafrugell,0,ES,1557852707,63,41.92,3.16,71.01,12.75
samarai,12,PG,1557852889,98,-10.62,150.67,73.77,1.19
altay,98,CN,1557852889,88,47.83,88.13,25.35,3.89
gimli,0,CA,1557852671,44,50.63,-96.99,55.99,7.0
